[
  {
    "status": "success",
    "country": "Germany",
    "regionName": "Hesse",
    "city": "Limburg an der Lahn",
    "lat": 50.3847,
    "lon": 8.0475,
    "query": "51.89.97.117"
  },
  {
    "status": "success",
    "country": "Singapore",
    "regionName": "Central Singapore",
    "city": "Singapore",
    "lat": 1.28009,
    "lon": 103.851,
    "query": "3.1.142.64"
  },
  {
    "status": "success",
    "country": "Singapore",
    "regionName": "North West",
    "city": "Singapore",
    "lat": 1.35208,
    "lon": 103.82,
    "query": "5.199.164.179"
  },
  {
    "status": "success",
    "country": "Germany",
    "regionName": "North Rhine-Westphalia",
    "city": "Düsseldorf",
    "lat": 51.1864,
    "lon": 6.8624,
    "query": "75.119.143.1"
  },
  {
    "status": "success",
    "country": "France",
    "regionName": "Grand Est",
    "city": "Lauterbourg",
    "lat": 48.9742,
    "lon": 8.1851,
    "query": "161.97.94.172"
  },
  {
    "status": "success",
    "country": "France",
    "regionName": "Grand Est",
    "city": "Lauterbourg",
    "lat": 48.9742,
    "lon": 8.1851,
    "query": "95.111.249.186"
  },
  {
    "status": "success",
    "country": "Finland",
    "regionName": "Uusimaa",
    "city": "Helsinki",
    "lat": 60.1719,
    "lon": 24.9347,
    "query": "65.21.236.34"
  },
  {
    "status": "success",
    "country": "France",
    "regionName": "Grand Est",
    "city": "Lauterbourg",
    "lat": 48.9742,
    "lon": 8.1851,
    "query": "5.189.135.248"
  },
  {
    "status": "success",
    "country": "United States",
    "regionName": "Virginia",
    "city": "Reston",
    "lat": 38.958,
    "lon": -77.3592,
    "query": "51.81.93.198"
  },
  {
    "status": "success",
    "country": "Sweden",
    "regionName": "Stockholm",
    "city": "Stockholm",
    "lat": 59.3293,
    "lon": 18.0686,
    "query": "13.50.94.193"
  },
  {
    "status": "success",
    "country": "Germany",
    "regionName": "Baden-Wurttemberg",
    "city": "Karlsruhe",
    "lat": 49.0078,
    "lon": 8.4001,
    "query": "89.250.64.194"
  },
  {
    "status": "success",
    "country": "Germany",
    "regionName": "North Rhine-Westphalia",
    "city": "Düsseldorf",
    "lat": 51.1864,
    "lon": 6.8624,
    "query": "194.163.190.36"
  },
  {
    "status": "success",
    "country": "United States",
    "regionName": "Florida",
    "city": "Tampa",
    "lat": 28.0109,
    "lon": -82.4948,
    "query": "209.133.210.14"
  },
  {
    "status": "success",
    "country": "Germany",
    "regionName": "North Rhine-Westphalia",
    "city": "Düsseldorf",
    "lat": 51.1864,
    "lon": 6.8624,
    "query": "62.169.21.209"
  },
  {
    "status": "success",
    "country": "United States",
    "regionName": "California",
    "city": "Los Angeles",
    "lat": 34.0544,
    "lon": -118.244,
    "query": "103.219.170.29"
  },
  {
    "status": "success",
    "country": "Germany",
    "regionName": "Saxony",
    "city": "Falkenstein",
    "lat": 50.4777,
    "lon": 12.3649,
    "query": "144.76.78.196"
  },
  {
    "status": "success",
    "country": "Japan",
    "regionName": "Tokyo",
    "city": "Tokyo",
    "lat": 35.6893,
    "lon": 139.6899,
    "query": "45.250.255.177"
  },
  {
    "status": "success",
    "country": "Germany",
    "regionName": "North Rhine-Westphalia",
    "city": "Düsseldorf",
    "lat": 51.1864,
    "lon": 6.8624,
    "query": "62.169.21.200"
  },
  {
    "status": "success",
    "country": "South Korea",
    "regionName": "Seoul",
    "city": "Seoul",
    "lat": 37.5665,
    "lon": 126.978,
    "query": "145.40.91.206"
  },
  {
    "status": "success",
    "country": "Germany",
    "regionName": "Saxony",
    "city": "Falkenstein",
    "lat": 50.4777,
    "lon": 12.3649,
    "query": "162.55.104.120"
  },
  {
    "status": "success",
    "country": "United States",
    "regionName": "Florida",
    "city": "Tampa",
    "lat": 28.0109,
    "lon": -82.4948,
    "query": "209.133.215.238"
  },
  {
    "status": "success",
    "country": "Germany",
    "regionName": "Baden-Wurttemberg",
    "city": "Karlsruhe",
    "lat": 49.0078,
    "lon": 8.4001,
    "query": "185.234.71.241"
  },
  {
    "status": "success",
    "country": "Germany",
    "regionName": "Hesse",
    "city": "Frankfurt am Main",
    "lat": 50.1169,
    "lon": 8.6837,
    "query": "31.172.68.60"
  },
  {
    "status": "success",
    "country": "France",
    "regionName": "Grand Est",
    "city": "Lauterbourg",
    "lat": 48.9742,
    "lon": 8.1851,
    "query": "144.91.104.129"
  },
  {
    "status": "success",
    "country": "United States",
    "regionName": "California",
    "city": "Santa Clarita",
    "lat": 34.4198,
    "lon": -118.563,
    "query": "135.148.241.205"
  },
  {
    "status": "success",
    "country": "Singapore",
    "regionName": "Central Singapore",
    "city": "Singapore",
    "lat": 1.28009,
    "lon": 103.851,
    "query": "3.1.142.64"
  },
  {
    "status": "success",
    "country": "Germany",
    "regionName": "Saxony",
    "city": "Falkenstein",
    "lat": 50.4777,
    "lon": 12.3649,
    "query": "176.9.109.206"
  },
  {
    "status": "success",
    "country": "United States",
    "regionName": "California",
    "city": "Santa Clarita",
    "lat": 34.4198,
    "lon": -118.563,
    "query": "135.148.241.208"
  },
  {
    "status": "success",
    "country": "France",
    "regionName": "Grand Est",
    "city": "Lauterbourg",
    "lat": 48.9742,
    "lon": 8.1851,
    "query": "164.68.117.21"
  },
  {
    "status": "success",
    "country": "Germany",
    "regionName": "Hesse",
    "city": "Fechenheim",
    "lat": 50.121,
    "lon": 8.747,
    "query": "169.155.45.199"
  },
  {
    "status": "success",
    "country": "Germany",
    "regionName": "Saxony",
    "city": "Falkenstein",
    "lat": 50.4777,
    "lon": 12.3649,
    "query": "5.9.153.62"
  },
  {
    "status": "success",
    "country": "Sweden",
    "regionName": "Stockholm",
    "city": "Stockholm",
    "lat": 59.3293,
    "lon": 18.0686,
    "query": "51.20.235.126"
  },
  {
    "status": "success",
    "country": "United States",
    "regionName": "Ohio",
    "city": "Dublin",
    "lat": 40.0992,
    "lon": -83.1141,
    "query": "3.132.73.210"
  },
  {
    "status": "success",
    "country": "France",
    "regionName": "Grand Est",
    "city": "Lauterbourg",
    "lat": 48.9742,
    "lon": 8.1851,
    "query": "164.68.124.151"
  },
  {
    "status": "success",
    "country": "Germany",
    "regionName": "Bavaria",
    "city": "Waldbrunn",
    "lat": 49.7582,
    "lon": 9.8069,
    "query": "194.45.36.185"
  },
  {
    "status": "success",
    "country": "Germany",
    "regionName": "North Rhine-Westphalia",
    "city": "Düsseldorf",
    "lat": 51.1864,
    "lon": 6.8624,
    "query": "212.90.121.134"
  },
  {
    "status": "success",
    "country": "United States",
    "regionName": "California",
    "city": "Santa Clarita",
    "lat": 34.4198,
    "lon": -118.563,
    "query": "135.148.241.201"
  },
  {
    "status": "success",
    "country": "United Kingdom",
    "regionName": "England",
    "city": "Portsmouth",
    "lat": 50.8514,
    "lon": -0.9903,
    "query": "158.220.95.223"
  },
  {
    "status": "success",
    "country": "Germany",
    "regionName": "Saxony",
    "city": "Falkenstein",
    "lat": 50.4777,
    "lon": 12.3649,
    "query": "138.201.9.252"
  },
  {
    "status": "success",
    "country": "United States",
    "regionName": "Ohio",
    "city": "Dublin",
    "lat": 40.0992,
    "lon": -83.1141,
    "query": "18.191.129.50"
  },
  {
    "status": "success",
    "country": "Finland",
    "regionName": "Uusimaa",
    "city": "Helsinki",
    "lat": 60.1719,
    "lon": 24.9347,
    "query": "135.181.238.239"
  },
  {
    "status": "success",
    "country": "Germany",
    "regionName": "Saxony",
    "city": "Falkenstein",
    "lat": 50.4777,
    "lon": 12.3649,
    "query": "23.88.70.181"
  },
  {
    "status": "success",
    "country": "United States",
    "regionName": "Ohio",
    "city": "Dublin",
    "lat": 40.0992,
    "lon": -83.1141,
    "query": "3.147.138.116"
  },
  {
    "status": "success",
    "country": "United States",
    "regionName": "New Jersey",
    "city": "Piscataway",
    "lat": 40.5511,
    "lon": -74.4606,
    "query": "67.213.220.56"
  },
  {
    "status": "success",
    "country": "Sweden",
    "regionName": "Stockholm County",
    "city": "Stockholm",
    "lat": 59.3274,
    "lon": 18.0653,
    "query": "79.136.114.244"
  },
  {
    "status": "success",
    "country": "France",
    "regionName": "Grand Est",
    "city": "Lauterbourg",
    "lat": 48.9742,
    "lon": 8.1851,
    "query": "161.97.109.185"
  },
  {
    "status": "success",
    "country": "United States",
    "regionName": "Illinois",
    "city": "Chicago",
    "lat": 41.8781,
    "lon": -87.6298,
    "query": "86.109.2.83"
  },
  {
    "status": "success",
    "country": "United States",
    "regionName": "Illinois",
    "city": "Chicago",
    "lat": 41.8781,
    "lon": -87.6297,
    "query": "38.114.121.59"
  },
  {
    "status": "success",
    "country": "United States",
    "regionName": "California",
    "city": "Santa Clarita",
    "lat": 34.4198,
    "lon": -118.563,
    "query": "135.148.241.209"
  },
  {
    "status": "success",
    "country": "United States",
    "regionName": "Washington",
    "city": "Kent",
    "lat": 47.3798,
    "lon": -122.2893,
    "query": "137.220.40.10"
  },
  {
    "status": "success",
    "country": "France",
    "regionName": "Grand Est",
    "city": "Lauterbourg",
    "lat": 48.9742,
    "lon": 8.1851,
    "query": "62.171.173.116"
  },
  {
    "status": "success",
    "country": "The Netherlands",
    "regionName": "North Holland",
    "city": "Haarlem",
    "lat": 52.3907,
    "lon": 4.66554,
    "query": "176.103.222.176"
  },
  {
    "status": "success",
    "country": "Germany",
    "regionName": "Hesse",
    "city": "Frankfurt am Main",
    "lat": 50.1169,
    "lon": 8.6837,
    "query": "173.244.194.129"
  },
  {
    "status": "success",
    "country": "United States",
    "regionName": "Virginia",
    "city": "Sterling",
    "lat": 39.0024,
    "lon": -77.4269,
    "query": "169.155.170.87"
  },
  {
    "status": "success",
    "country": "United States",
    "regionName": "Illinois",
    "city": "Chicago",
    "lat": 41.8835,
    "lon": -87.6305,
    "query": "172.237.148.74"
  },
  {
    "status": "success",
    "country": "United States",
    "regionName": "California",
    "city": "Santa Clarita",
    "lat": 34.4198,
    "lon": -118.563,
    "query": "135.148.241.206"
  },
  {
    "status": "success",
    "country": "United States",
    "regionName": "California",
    "city": "Santa Clarita",
    "lat": 34.4198,
    "lon": -118.563,
    "query": "135.148.241.203"
  },
  {
    "status": "success",
    "country": "Germany",
    "regionName": "North Rhine-Westphalia",
    "city": "Düsseldorf",
    "lat": 51.1864,
    "lon": 6.8624,
    "query": "37.60.240.161"
  },
  {
    "status": "success",
    "country": "United States",
    "regionName": "Oregon",
    "city": "Portland",
    "lat": 45.5235,
    "lon": -122.676,
    "query": "35.163.180.35"
  },
  {
    "status": "success",
    "country": "Poland",
    "regionName": "Łódź Voivodeship",
    "city": "Piotrkow Trybunalski",
    "lat": 51.4136,
    "lon": 19.6929,
    "query": "31.182.51.62"
  },
  {
    "status": "success",
    "country": "France",
    "regionName": "Grand Est",
    "city": "Lauterbourg",
    "lat": 48.9742,
    "lon": 8.1851,
    "query": "173.212.235.175"
  },
  {
    "status": "success",
    "country": "Germany",
    "regionName": "Saxony",
    "city": "Falkenstein",
    "lat": 50.4777,
    "lon": 12.3649,
    "query": "5.9.105.147"
  },
  {
    "status": "success",
    "country": "The Netherlands",
    "regionName": "South Holland",
    "city": "Naaldwijk",
    "lat": 51.9968,
    "lon": 4.2057,
    "query": "185.183.32.86"
  },
  {
    "status": "success",
    "country": "Germany",
    "regionName": "North Rhine-Westphalia",
    "city": "Düsseldorf",
    "lat": 51.1864,
    "lon": 6.8624,
    "query": "109.199.126.95"
  },
  {
    "status": "success",
    "country": "Germany",
    "regionName": "North Rhine-Westphalia",
    "city": "Düsseldorf",
    "lat": 51.1864,
    "lon": 6.8624,
    "query": "109.199.107.249"
  },
  {
    "status": "success",
    "country": "United States",
    "regionName": "Ohio",
    "city": "Dublin",
    "lat": 40.0992,
    "lon": -83.1141,
    "query": "18.223.198.165"
  },
  {
    "status": "success",
    "country": "United States",
    "regionName": "Ohio",
    "city": "Dublin",
    "lat": 40.0992,
    "lon": -83.1141,
    "query": "3.132.73.210"
  },
  {
    "status": "success",
    "country": "United States",
    "regionName": "Illinois",
    "city": "Chicago",
    "lat": 41.892,
    "lon": -87.6416,
    "query": "104.244.240.239"
  },
  {
    "status": "success",
    "country": "Germany",
    "regionName": "Hesse",
    "city": "Frankfurt am Main",
    "lat": 50.097,
    "lon": 8.63006,
    "query": "212.95.45.197"
  },
  {
    "status": "success",
    "country": "Germany",
    "regionName": "North Rhine-Westphalia",
    "city": "Düsseldorf",
    "lat": 51.1864,
    "lon": 6.8624,
    "query": "213.199.60.147"
  },
  {
    "status": "success",
    "country": "Germany",
    "regionName": "North Rhine-Westphalia",
    "city": "Düsseldorf",
    "lat": 51.1864,
    "lon": 6.8624,
    "query": "158.220.100.120"
  },
  {
    "status": "success",
    "country": "Germany",
    "regionName": "North Rhine-Westphalia",
    "city": "Düsseldorf",
    "lat": 51.1864,
    "lon": 6.8624,
    "query": "185.197.194.18"
  },
  {
    "status": "success",
    "country": "United States",
    "regionName": "New Jersey",
    "city": "Secaucus",
    "lat": 40.7862,
    "lon": -74.0743,
    "query": "66.45.250.170"
  },
  {
    "status": "success",
    "country": "United States",
    "regionName": "Ohio",
    "city": "Dublin",
    "lat": 40.0992,
    "lon": -83.1141,
    "query": "3.132.73.210"
  },
  {
    "status": "success",
    "country": "United States",
    "regionName": "California",
    "city": "Santa Clarita",
    "lat": 34.4198,
    "lon": -118.563,
    "query": "135.148.241.202"
  },
  {
    "status": "success",
    "country": "United States",
    "regionName": "California",
    "city": "Santa Clarita",
    "lat": 34.4198,
    "lon": -118.563,
    "query": "135.148.241.204"
  },
  {
    "status": "success",
    "country": "Germany",
    "regionName": "Hesse",
    "city": "Frankfurt am Main",
    "lat": 50.1109,
    "lon": 8.68213,
    "query": "3.121.4.180"
  },
  {
    "status": "success",
    "country": "Russia",
    "regionName": "Moscow",
    "city": "Moscow",
    "lat": 55.7558,
    "lon": 37.6173,
    "query": "217.24.184.210"
  },
  {
    "status": "success",
    "country": "France",
    "regionName": "Grand Est",
    "city": "Lauterbourg",
    "lat": 48.9742,
    "lon": 8.1851,
    "query": "173.249.8.142"
  }
]
